id,,name,hazard_level_text,flood_depth_ft,population,vulnerability_index,total_personnel,sar_current,ems_current,lat,lon
ALICIA,,Brgy. Alicia,Medium,2.43,6119,0.297761072,51,38,13,14.66143356,121.0249326
AMIHAN,,Brgy. Amihan,Medium,2.1,3513,0.271847424,29,22,7,14.63224523,121.0684271
APOLONIO_SAMSON,,Brgy. Apolonio Samson,Medium,3.523,33629,0.229682714,280,210,70,14.65464984,121.0092136
BAESA,,Brgy. Baesa,Medium,1.95,55328,0.22780509,460,345,115,14.66964717,121.0115635
BAGBAG,,Brgy. Bagbag,Medium,2.76,64653,0.206703479,538,404,134,14.69723288,121.0311027
BAGONG_LIPUNAN_NG_CRAME,,Brgy. Bagong Lipunan ng Crame,Low,1.22,13630,0.112472487,113,73,40,14.61065581,121.0508196
BAGONG_PAG_ASA,,Brgy. Bagong Pag-asa,Medium,3.235,29389,0.088536527,245,184,61,14.65509725,121.0349045
BAGONG_SILANGAN,,Brgy. Bagong Silangan,High,5.28,106886,0.09623337,889,756,133,14.70981214,121.1134087
BAGUMBAYAN,,Brgy. Bagumbayan,Medium,3.51,22147,0.21429539,184,138,46,14.606808,121.0814842
BAGUMBUHAY,,Brgy. Bagumbuhay,Medium,2.58,6681,0.242478671,56,42,14,14.62515679,121.0651896
BAHAY_TORO,,Brgy. Bahay Toro,Medium,3.56,59639,0.282516474,496,372,124,14.66746171,121.0286049
BALINGASA,,Brgy. Balingasa,Low,0.98,19260,0.070404984,160,104,56,14.65164191,121.0016195
BALUMBATO,,Brgy. Balumbato,Low,1.26,6991,0.164783293,58,38,20,14.66316234,121.0029912
BATASAN_HILLS,,Brgy. Batasan Hills,Medium,3.78,166572,0.114449007,1386,1040,346,14.68343539,121.0981865
BAYANIHAN,,Brgy. Bayanihan,Low,1.18,613,0.207177814,5,3,2,14.61540978,121.0695278
BLUE_RIDGE_A,,Brgy. Blue Ridge A,Low,0.23,1534,0.071707953,13,8,5,14.61903448,121.0735326
BLUE_RIDGE_B,,Brgy. Blue Ridge B,Low,0.87,1071,0.154995331,9,6,3,14.61788141,121.07541
BOTOCAN,,Brgy. Botocan,Low,0.752,7501,0.091721104,62,40,22,14.6381089,121.0636577
BUNGAD,,Brgy. Bungad,Medium,2.21,7014,0.082264043,58,44,14,14.64997493,121.0246487
CAPRI,,Brgy. Capri,High,4.986,12903,0.693445761,107,91,16,14.71679882,121.028477
CENTRAL,,Brgy. Central,Medium,3.35,19331,0.094873519,161,121,40,14.6463009,121.0486307
CAMP_AGUINALDO,,Brgy. Camp Aguinaldo,Low,0.45,3269,0,27,18,9,14.60726587,121.0637277
COMMONWEALTH,,Brgy. Commonwealth,Medium,3.65,213229,0.05340268,1774,1330,444,14.70052769,121.083798
CULIAT,,Brgy. Culiat,Medium,2.83,67804,0.23137278,564,423,141,14.66777627,121.054947
DAMAR,,Brgy. Damar,Low,0.53,952,0.214285714,8,5,3,14.64680629,121.0008772
DAMAYAN,,Brgy. Damayan,Medium,3,6007,0.323289496,50,38,12,14.63784834,121.0139472
DAMAYANG_LAGI,,Brgy. Damayang Lagi,Medium,4.5,19466,0.257782801,162,122,40,14.61605037,121.0232706
DEL_MONTE,,Brgy. Del Monte,Medium,4.75,10595,0.258612553,88,66,22,14.64326124,121.015046
DIOQUINO_ZOBEL,,Brgy. Dioquino Zobel,Medium,2.75,1805,0.068698061,15,11,4,14.61983145,121.0647381
DON_MANUEL,,Brgy. Don Manuel,Low,1.63,1728,0.276041667,14,9,5,14.61634956,121.0051836
DONA_AURORA,,Brgy. Dona Aurora,Low,0.325,4221,0.028666193,35,23,12,14.61624693,121.0091634
DONA_IMELDA,,Brgy. Dona Imelda,High,4.95,11724,0.222449676,98,83,15,14.61300607,121.0172059
DONA_JOSEFA,,Brgy. Dona Josefa,Low,1.5,1857,0.010770059,15,10,5,14.62001076,121.0067754
DUYAN_DUYAN,,Brgy. Duyan-Duyan,Low,1.226,1728,0.067619899,28,18,10,14.62999746,121.0671588
E_RODRIGUEZ,,Brgy. E. Rodriguez,Medium,3.45,17363,0.142890054,145,109,36,14.62633826,121.052093
EAST_KAMIAS,,Brgy. East Kamias,High,4.75,6395,0.254104769,53,45,8,14.63219268,121.0561699
ESCOBA_1,,Brgy. Escopa 1,Low,0.5,2110,0,18,12,6,14.62440321,121.0734585
ESCOBA_2,,Brgy. Escopa 2,Low,0.2,1683,0,14,9,5,14.62431164,121.074453
ESCOBA_3,,Brgy. Escopa 3,Low,0.5,7985,0,66,43,23,14.62700828,121.0732587
ESCOBA_4,,Brgy. Escopa 4,Low,0.12,1837,0,15,10,5,14.62564591,121.0743872
FAIRVIEW,,Brgy. Fairview,Medium,3,61813,0.05820782,514,386,128,14.70245239,121.0687383
GREATER_LAGRO,,Brgy. Greater Lagro,Medium,3.64,23569,0.080826509,196,147,49,14.72363061,121.0633776
GULOD,,Brgy. Gulod,Medium,4.75,62542,0.117824822,520,390,130,14.71159326,121.0409845
HOLY_SPIRIT,,Brgy. Holy Spirit,Low,1.22,111901,0.064530254,931,605,326,14.684883,121.0779885
HORSESHOE,,Brgy. Horseshoe,Medium,3.56,2866,0.132588974,24,18,6,14.61259045,121.0419452
IMMACULATE_CONCEPTION,,Brgy. Immaculate Conception,Medium,2.75,8169,0.086669115,68,51,17,14.62236934,121.0443232
KALIGAYAHAN,,Brgy. Kaligayahan,Medium,2.31,60462,0.051701895,503,377,126,14.73457972,121.0459234
KALUSUGAN,,Brgy. Kalusugan,Medium,4.8,4786,0.008984538,40,30,10,14.62292118,121.0213597
KAMUNING,,Brgy. Kamuning,Medium,4.75,14258,0.224014588,119,89,30,14.62777997,121.0397147
KATIPUNAN,,Brgy. Katipunan,High,4.934,10508,0.115816521,87,74,13,14.65619492,121.0171765
KAUNLARAN,,Brgy. Kaunlaran,Low,0.234,12387,0.011463631,103,67,36,14.61689076,121.0440833
KRISTONG_HARI,,Brgy. Kristong Hari,Medium,3.752,6055,0.08654005,50,38,12,14.62481582,121.0306197
KRUS_NA_LIGAS,,Brgy. Krus na Ligas,Low,1.22,21287,0,177,115,62,14.64432541,121.0627873
LAGING_HANDA,,Brgy. Laging Handa,Low,1.13,4812,0.079800499,40,26,14,14.63250452,121.0305875
LIBIS,,Brgy. Libis,Medium,4.32,4208,0.060361217,35,26,9,14.61618993,121.0769978
LOURDES,,Brgy. Lourdes,Medium,3.12,4523,0.089984524,38,28,10,14.6258265,121.0021126
LOYOLA_HEIGHTS,,Brgy. Loyola Heights,Low,0.96,21140,0.155865658,176,114,62,14.63830397,121.0739516
MAHARLIKA,,Brgy. Maharlika,Medium,2.87,4349,0.322832835,36,27,9,14.63338764,120.996748
MALAYA,,Brgy. Malaya,Medium,0.438,2605,0.012284069,22,16,6,14.63599851,121.0555432
MANGGA,,Brgy. Mangga,Low,1.117,11967,0.224534502,8,5,3,14.62562661,121.0620108
MANRESA,,Brgy. Manresa,Medium,4.32,17224,0.086565258,143,107,36,14.6415392,121.0007527
MARIANA,,Brgy. Mariana,Medium,3.218,11967,0.070193031,100,75,25,14.61898561,121.0333129
MARIBLO,,Brgy. Mariblo,Low,0.791,3433,0.477133702,29,19,10,14.63464313,121.0158518
MARILAG,,Brgy. Marilag,Low,0.81,12555,0.064755078,104,68,36,14.62550739,121.069958
MASAGANA,,Brgy. Masagana,Low,1.274,4166,0.381421027,35,23,12,14.61843938,121.0668343
MASAMBONG,,Brgy. Masambong,Medium,4.197,8800,0.704659091,73,55,18,14.64212716,121.008637
MATANDANG_BALARA,,Brgy. Matandang Balara,Medium,4.819,69475,0.063145016,578,434,144,14.67044973,121.0809336
MILAGROSA,,Brgy. Milagrosa,Low,0.912,6775,0.115719557,56,36,20,14.62059779,121.0697722
NS_AMORANTO,,Brgy. N. S. Amoranto,Medium,3.16,5952,0.135584677,50,38,12,14.63241032,120.9935736
NAGKAISANG_NAYON,,Brgy. Nagkaisang Nayon,Medium,2.812,53781,0.145348729,448,336,112,14.71888101,121.0250878
NAYONG_KANLURAN,,Brgy. Nayong Kanluran,Medium,4.819,2456,0.165309446,20,15,5,14.64013017,121.024885
NEW_ERA,,Brgy. New Era,Medium,2.121,14105,0.2067352,117,88,29,14.66415345,121.0601573
NORTH_FAIRVIEW,,Brgy. North Fairview,Low,0.73,44408,0.081021438,370,240,130,14.71257175,121.0611248
NOVALICHES_PROPER,,Brgy. Novaliches Proper,Medium,3.812,15468,0.278122576,129,97,32,14.72064347,121.0374359
OBRERO,,Brgy. Obrero,Medium,2.873,9500,0.134421053,79,59,20,14.62828039,121.0297484
OLD_CAPITOL_SITE,,Brgy. Old Capitol Site,Medium,3.87,1319,0.018195603,11,8,3,14.65034605,121.0528087
PAANG_BUNDOK,,Brgy. Paang Bundok,Low,1,4806,0.002496879,40,26,14,14.6281223,120.9919778
PAG_IBIG_SA_NAYON,,Brgy. Pag-Ibig sa Nayon,Medium,2.24,5918,0.04782021,49,37,12,14.64708319,120.996701
PALIGSAHAN,,Brgy. Paligsahan,Medium,2.7,3518,0.064809551,29,22,7,14.63237915,121.0227965
PALTOK,,Brgy. Paltok,Medium,2.223,18124,0.210825425,151,113,38,14.64355619,121.0229969
PANSOL,,Brgy. Pansol,Medium,3.4,35254,0.058716741,293,220,73,14.65680508,121.0827832
PARAISO,,Brgy. Paraiso,Medium,4.564,3537,0.156629912,29,22,7,14.6378562,121.0175495
PASONG_PUTIK_PROPER,,Brgy. Pasong Putik Proper,Medium,1.72,39896,0.028749749,332,249,83,14.74035228,121.095712
PASONG_TAMO,,Brgy. Pasong Tamo,Medium,2.43,110738,0.113556322,921,691,230,14.68145912,121.0587009
PAYATAS,,Brgy. Payatas,Medium,3.58,139740,0.021497066,1163,872,291,14.71152632,121.1006512
PHILAM,,Brgy. Philam,Medium,2.472,2524,0.169572108,21,16,5,14.64938705,121.0309825
PINAGKAISAHAN,,Brgy. Pinagkaisahan,Medium,3.564,4366,0.17338525,36,27,9,14.62600533,121.0442133
PINYAHAN,,Brgy. Pinyahan,Medium,4.3,21868,0.022178526,182,136,46,14.63789542,121.0470557
PROJECT_6,,Brgy. Project 6,Medium,2.77,11899,0.118077149,99,74,25,14.65663659,121.0407057
QUIRINO_2A,,Brgy. Quirino 2-A,Medium,3.2,4622,0.320424059,38,28,10,14.63039777,121.0590742
QUIRINO_2B,,Brgy. Quirino 2-B,Medium,2.42,3938,0.170644997,33,25,8,14.63225908,121.0618405
QUIRINO_2C,,Brgy. Quirino 2-C,Medium,4.25,3189,0.212605833,27,20,7,14.63474852,121.063051
QUIRINO_3A,,Brgy. Quirino 3-A,Medium,2.74,1070,0.330841121,9,7,2,14.62866043,121.0636062
QUIRINO_3B,,Brgy. Quirino 3-B,Medium,3.84,3885,0.410810811,32,27,5,14.63158245,121.0645363
RAMON_MAGSAYSAY,,Brgy. Ramon Magsaysay,Medium,4.03,14321,0.0525103,119,89,30,14.65911599,121.0226855
ROXAS,,Brgy. Roxas,High,4.953,10670,0.313964386,89,67,22,14.62762836,121.0218711
SACRED_HEART,,Brgy. Sacred Heart,Medium,1.73,6089,0.033338808,51,33,18,14.63139731,121.0388454
SAINT_PETER,,Brgy. Saint Peter,Medium,2.37,4049,0.343294641,34,22,12,14.634906,120.9998444
SAINT_IGNATIUS,,Brgy. Saint Ignatius,Low,1.27,2054,0.066212269,17,11,6,14.61285106,121.0729148
SALVACION,,Brgy. Salvacion,Low,0.8,6681,0.071845532,56,42,14,14.6265338,120.9939571
SAN_AGUSTIN,,Brgy. San Agustin,Low,0.67,25355,0.073713272,211,158,53,14.73016968,121.0343875
SAN_ANTONIO,,Brgy. San Antonio,Medium,3.45,22229,0.295469882,185,120,65,14.65004568,121.0169596
SAN_BARTOLOME,,Brgy. San Bartolome,Medium,3.22,51148,0.15971299,426,277,149,14.70627741,121.0309644
SAN_ISIDRO,,Brgy. San Isidro,Low,0.45,6550,0.107938931,55,36,19,14.61289501,121.0083339
SAN_ISIDRO_LABRADOR,,Brgy. San Isidro Labrador,Low,0.64,6247,0.180726749,52,39,13,14.62389198,120.9961127
SAN_JOSE,,Brgy. San Jose,Low,0.43,5844,0.022245038,49,37,12,14.64060831,120.9937424
SAN_MARTIN_DE_PORRES,,Brgy. San Martin de Porres,Medium,2.12,11632,0.021836314,97,63,34,14.6175614,121.0497756
SAN_ROQUE,,Brgy. San Roque,Low,0.2,19093,0.05693186,159,103,56,14.61911196,121.0621319
SAN_VICENTE,,Brgy. San Vicente,Low,0.98,7160,0.052513966,60,39,21,14.65316625,121.0557906
SANGANDAAN,,Brgy. Sangandaan,Medium,3.45,21061,0.263330326,175,131,44,14.6746409,121.0204107
SANTOL,,Brgy. Santol,Medium,1.56,6410,0.184711388,53,34,19,14.6104505,121.0153031
SAUYO,,Brgy. Sauyo,Low,1.4,76289,0.077363709,635,413,222,14.69487742,121.0463794
SIENA,,Brgy. Siena,Medium,4.56,2072,0.443532819,17,13,4,14.63635169,121.0045059
SIKATUNA_VILLAGE,,Brgy. Sikatuna Village,Low,0.56,6121,0.026793008,51,33,18,14.63806739,121.0592293
SILANGAN,,Brgy. Silangan,Medium,3.24,4831,0.305526806,40,30,10,14.62752868,121.0587933
SOCORRO,,Brgy. Socorro,Medium,3.47,22227,0.019795744,185,139,46,14.61751377,121.0564081
SOUTH_TRIANGLE,,Brgy. South Triangle,High,4.983,14494,0.06057679,121,103,18,14.63793836,121.0360955
STA_CRUZ,,Brgy. Sta. Cruz,Medium,2.65,3945,0.242585551,33,25,8,14.63566465,121.0205774
STA_LUCIA,,Brgy. Sta. Lucia,High,5.21,28215,0.161297182,235,200,35,14.70649847,121.050856
STA_MONICA,,Brgy. Sta. Monica,High,5.43,51834,0.203746576,431,366,65,14.71904454,121.0462579
STA_TERESITA,,Brgy. Sta. Teresita,Low,0.88,11776,0.042204484,98,64,34,14.62069579,121.0002183
STO_CRISTO,,Brgy. Sto. Cristo,Medium,2.465,25783,0.042974053,215,161,54,14.6598486,121.028958
STO_DOMINGO,,Brgy. Sto. Domingo,High,5.13,11476,0.43935169,96,82,14,14.62970699,121.0077004
STO_NINO,,Brgy. Sto. Nino,Low,0.4,7070,0.039462518,59,38,21,14.61107394,121.0117633
TAGUMPAY,,Brgy. Tagumpay,Medium,3.267,2257,0.100575986,19,14,5,14.622268,121.0636452
TALAYAN,,Brgy. Talayan,High,5.032,4402,0.574511586,37,31,6,14.63473323,121.0112586
TALIPAPA,,Brgy. Talipapa,Medium,4.197,38949,0.12233947,324,243,81,14.68541325,121.0250776
TANDANG_SORA,,Brgy. Tandang Sora,Medium,3.291,83114,0.137389609,692,519,173,14.68206282,121.0400757
TATALON,,Brgy. Tatalon,Medium,4.38,55404,0.377608115,461,346,115,14.62357546,121.013913
TEACHERS_VILLAGE_EAST,,Brgy. Teachers Village East,Low,0.917,2401,0.051645148,20,13,7,14.6443337,121.0593115
TEACHERS_VILLAGE_WEST,,Brgy. Teachers Village West,Low,1.102,2986,0.104152713,25,16,9,14.64267995,121.0562375
UGONG_NORTE,,Brgy. Ugong Norte,Medium,2.518,6301,0.198063799,52,39,13,14.59662112,121.0710797
UNANG_SIGAW,,Brgy. Unang Sigaw,Low,1.284,6508,0.047633682,54,35,19,14.65919237,121.0013573
UP_CAMPUS,,Brgy. UP Campus,Medium,3.312,47127,0.014768604,392,294,98,14.65398027,121.0647942
UP_VILLAGE,,Brgy. UP Village,Low,0.873,3167,0.059677929,26,17,9,14.64888507,121.0563055
VALENCIA,,Brgy. Valencia,Medium,4.112,10900,0.03706422,91,68,23,14.61075866,121.0365006
VASRA,,Brgy. Vasra,Medium,2.678,7345,0.257045609,61,46,15,14.65695557,121.0463517
VETERANS_VILLAGE,,Brgy. Veterans Village,Medium,3.284,12755,0.109368875,106,80,26,14.65455274,121.0240285
VILLA_MARIA_CLARA,,Brgy. Villa Maria Clara,Low,1.482,2442,0.33988534,20,13,7,14.61656098,121.0687836
WEST_TRIANGLE,,Brgy. West Triangle,Medium,3.564,2431,0.229946524,20,15,5,14.64307947,121.0312166
WEST_KAMIAS,,Brgy. West Kamias,Medium,3.193,4055,0.510974106,34,26,8,14.63044628,121.0493061
WHITE_PLAINS,,Brgy. White Plains,Medium,2.862,3558,0.184373243,30,22,8,14.60618026,121.0726714
